[
  {
    "id": 0,
    "name": "Международная",
    "location": {
      "lat": 55.7478101,
      "lng": 37.5331569
    },
    "city": "Москва"
  },
  {
    "id": 1,
    "name": "Выставочная",
    "location": {
      "lat": 55.750015,
      "lng": 37.542048
    },
    "city": "Москва"
  },
  {
    "id": 2,
    "name": "Пионерская",
    "location": {
      "lat": 55.7361091,
      "lng": 37.467649
    },
    "city": "Москва"
  },
  {
    "id": 3,
    "name": "Улица Горчакова",
    "location": {
      "lat": 55.5421542,
      "lng": 37.5328515
    },
    "city": "Москва"
  },
  {
    "id": 4,
    "name": "Молодёжная",
    "location": {
      "lat": 55.7408078,
      "lng": 37.4152942
    },
    "city": "Москва"
  },
  {
    "id": 5,
    "name": "Студенческая",
    "location": {
      "lat": 55.7387995,
      "lng": 37.5483774
    },
    "city": "Москва"
  },
  {
    "id": 6,
    "name": "Багратионовская",
    "location": {
      "lat": 55.7431254,
      "lng": 37.4983262
    },
    "city": "Москва"
  },
  {
    "id": 7,
    "name": "Кунцевская (Филевская линия)",
    "location": {
      "lat": 55.7521566,
      "lng": 37.6015557
    },
    "city": "Москва"
  },
  {
    "id": 8,
    "name": "Славянский бульвар",
    "location": {
      "lat": 55.729602,
      "lng": 37.470814
    },
    "city": "Москва"
  },
  {
    "id": 9,
    "name": "Митино",
    "location": {
      "lat": 55.86315190000001,
      "lng": 37.3630213
    },
    "city": "Москва"
  },
  {
    "id": 10,
    "name": "Пятницкое шоссе",
    "location": {
      "lat": 55.85587599999999,
      "lng": 37.35418110000001
    },
    "city": "Москва"
  },
  {
    "id": 11,
    "name": "Строгино",
    "location": {
      "lat": 55.8017632,
      "lng": 37.4079916
    },
    "city": "Москва"
  },
  {
    "id": 12,
    "name": "Электрозаводская",
    "location": {
      "lat": 55.7824092,
      "lng": 37.7066572
    },
    "city": "Москва"
  },
  {
    "id": 13,
    "name": "Марксистская",
    "location": {
      "lat": 55.74069720000001,
      "lng": 37.6571604
    },
    "city": "Москва"
  },
  {
    "id": 14,
    "name": "Перово",
    "location": {
      "lat": 55.7509446,
      "lng": 37.7847251
    },
    "city": "Москва"
  },
  {
    "id": 15,
    "name": "Люблино",
    "location": {
      "lat": 55.675739,
      "lng": 37.7617911
    },
    "city": "Москва"
  },
  {
    "id": 16,
    "name": "Курская (Кольцевая линия)",
    "location": {
      "lat": 55.7584345,
      "lng": 37.6604195
    },
    "city": "Москва"
  },
  {
    "id": 17,
    "name": "Савёловская",
    "location": {
      "lat": 55.79419799999999,
      "lng": 37.5888962
    },
    "city": "Москва"
  },
  {
    "id": 18,
    "name": "Бульвар Рокоссовского (Сокольническая линия)",
    "location": {
      "lat": 55.813927,
      "lng": 37.7338677
    },
    "city": "Москва"
  },
  {
    "id": 19,
    "name": "Баррикадная",
    "location": {
      "lat": 55.7614128,
      "lng": 37.579258
    },
    "city": "Москва"
  },
  {
    "id": 20,
    "name": "Рязанский проспект",
    "location": {
      "lat": 55.71665400000001,
      "lng": 37.792893
    },
    "city": "Москва"
  },
  {
    "id": 21,
    "name": "Улица Старокачаловская",
    "location": {
      "lat": 55.56913400000001,
      "lng": 37.576364
    },
    "city": "Москва"
  },
  {
    "id": 22,
    "name": "Речной вокзал",
    "location": {
      "lat": 55.8554462,
      "lng": 37.475747
    },
    "city": "Москва"
  },
  {
    "id": 23,
    "name": "Водный стадион",
    "location": {
      "lat": 55.8390354,
      "lng": 37.4874271
    },
    "city": "Москва"
  },
  {
    "id": 24,
    "name": "Крылатское",
    "location": {
      "lat": 55.7557968,
      "lng": 37.4087696
    },
    "city": "Москва"
  },
  {
    "id": 25,
    "name": "Жулебино",
    "location": {
      "lat": 55.6842625,
      "lng": 37.8548295
    },
    "city": "Москва"
  },
  {
    "id": 26,
    "name": "Парк Победы (Арбатско-Покровская линия)",
    "location": {
      "lat": 55.73588480000001,
      "lng": 37.5174924
    },
    "city": "Москва"
  },
  {
    "id": 27,
    "name": "Маяковская",
    "location": {
      "lat": 55.7703912,
      "lng": 37.5960545
    },
    "city": "Москва"
  },
  {
    "id": 28,
    "name": "Автозаводская (Замоскворецкая линия)",
    "location": {
      "lat": 55.7084102,
      "lng": 37.6580913
    },
    "city": "Москва"
  },
  {
    "id": 29,
    "name": "Красногвардейская",
    "location": {
      "lat": 55.6140855,
      "lng": 37.7443026
    },
    "city": "Москва"
  },
  {
    "id": 30,
    "name": "Кутузовская (Филевская линия)",
    "location": {
      "lat": 55.74092719999999,
      "lng": 37.537459
    },
    "city": "Москва"
  },
  {
    "id": 31,
    "name": "Алма-Атинская",
    "location": {
      "lat": 55.632813,
      "lng": 37.766061
    },
    "city": "Москва"
  },
  {
    "id": 32,
    "name": "Коломенская",
    "location": {
      "lat": 55.67943829999999,
      "lng": 37.6633544
    },
    "city": "Москва"
  },
  {
    "id": 33,
    "name": "Кантемировская",
    "location": {
      "lat": 55.6363604,
      "lng": 37.65608659999999
    },
    "city": "Москва"
  },
  {
    "id": 34,
    "name": "Тверская",
    "location": {
      "lat": 55.76534849999999,
      "lng": 37.6049831
    },
    "city": "Москва"
  },
  {
    "id": 35,
    "name": "Бунинская аллея",
    "location": {
      "lat": 55.5376691,
      "lng": 37.5140834
    },
    "city": "Москва"
  },
  {
    "id": 36,
    "name": "Белорусская (Замоскворецкая линия)",
    "location": {
      "lat": 55.77702189999999,
      "lng": 37.5814844
    },
    "city": "Москва"
  },
  {
    "id": 37,
    "name": "Арбатская",
    "location": {
      "lat": 55.7521566,
      "lng": 37.6015557
    },
    "city": "Москва"
  },
  {
    "id": 38,
    "name": "Чистые пруды",
    "location": {
      "lat": 55.7648374,
      "lng": 37.6378526
    },
    "city": "Москва"
  },
  {
    "id": 39,
    "name": "Стрешнево",
    "location": {
      "lat": 55.8136163,
      "lng": 37.4867959
    },
    "city": "Москва"
  },
  {
    "id": 40,
    "name": "Киевская (Арбатско-Покровская линия)",
    "location": {
      "lat": 55.7521566,
      "lng": 37.6015557
    },
    "city": "Москва"
  },
  {
    "id": 41,
    "name": "Киевская (Кольцевая линия)",
    "location": {
      "lat": 55.7437638,
      "lng": 37.567594
    },
    "city": "Москва"
  },
  {
    "id": 42,
    "name": "Лубянка",
    "location": {
      "lat": 55.75926339999999,
      "lng": 37.6281477
    },
    "city": "Москва"
  },
  {
    "id": 43,
    "name": "Сходненская",
    "location": {
      "lat": 55.8508825,
      "lng": 37.440025
    },
    "city": "Москва"
  },
  {
    "id": 44,
    "name": "Волоколамская",
    "location": {
      "lat": 55.835596,
      "lng": 37.382108
    },
    "city": "Москва"
  },
  {
    "id": 45,
    "name": "Пушкинская",
    "location": {
      "lat": 55.7656289,
      "lng": 37.60418200000001
    },
    "city": "Москва"
  },
  {
    "id": 46,
    "name": "Полежаевская",
    "location": {
      "lat": 55.777538,
      "lng": 37.51924899999999
    },
    "city": "Москва"
  },
  {
    "id": 47,
    "name": "Мякинино",
    "location": {
      "lat": 55.82532399999999,
      "lng": 37.385172
    },
    "city": "Москва"
  },
  {
    "id": 48,
    "name": "Щукинская",
    "location": {
      "lat": 55.80835579999999,
      "lng": 37.464479
    },
    "city": "Москва"
  },
  {
    "id": 49,
    "name": "Беговая",
    "location": {
      "lat": 55.7736361,
      "lng": 37.5439262
    },
    "city": "Москва"
  },
  {
    "id": 50,
    "name": "Октябрьское Поле",
    "location": {
      "lat": 55.7940626,
      "lng": 37.4923524
    },
    "city": "Москва"
  },
  {
    "id": 51,
    "name": "Бутырская",
    "location": {
      "lat": 55.8141702,
      "lng": 37.6008714
    },
    "city": "Москва"
  },
  {
    "id": 52,
    "name": "Первомайская",
    "location": {
      "lat": 55.7937818,
      "lng": 37.7993487
    },
    "city": "Москва"
  },
  {
    "id": 53,
    "name": "Бауманская",
    "location": {
      "lat": 55.7725599,
      "lng": 37.6784801
    },
    "city": "Москва"
  },
  {
    "id": 54,
    "name": "Медведково",
    "location": {
      "lat": 55.88713,
      "lng": 37.66155639999999
    },
    "city": "Москва"
  },
  {
    "id": 55,
    "name": "Краснопресненская",
    "location": {
      "lat": 55.76024659999999,
      "lng": 37.5771212
    },
    "city": "Москва"
  },
  {
    "id": 56,
    "name": "Боровицкая",
    "location": {
      "lat": 55.7505061,
      "lng": 37.6091447
    },
    "city": "Москва"
  },
  {
    "id": 57,
    "name": "Партизанская",
    "location": {
      "lat": 55.786732,
      "lng": 37.751268
    },
    "city": "Москва"
  },
  {
    "id": 58,
    "name": "Нагорная",
    "location": {
      "lat": 55.6724444,
      "lng": 37.6101503
    },
    "city": "Москва"
  },
  {
    "id": 59,
    "name": "Павелецкая (Кольцевая линия)",
    "location": {
      "lat": 55.7310093,
      "lng": 37.6363571
    },
    "city": "Москва"
  },
  {
    "id": 60,
    "name": "Кожуховская",
    "location": {
      "lat": 55.7061396,
      "lng": 37.6864187
    },
    "city": "Москва"
  },
  {
    "id": 61,
    "name": "Каховская",
    "location": {
      "lat": 55.6525055,
      "lng": 37.5969296
    },
    "city": "Москва"
  },
  {
    "id": 62,
    "name": "Чеховская",
    "location": {
      "lat": 55.7662635,
      "lng": 37.609487
    },
    "city": "Москва"
  },
  {
    "id": 63,
    "name": "Комсомольская (Сокольническая линия)",
    "location": {
      "lat": 55.7762511,
      "lng": 37.655818
    },
    "city": "Москва"
  },
  {
    "id": 64,
    "name": "ЗИЛ",
    "location": {
      "lat": 55.69800069999999,
      "lng": 37.64770499999999
    },
    "city": "Москва"
  },
  {
    "id": 65,
    "name": "Бульвар Рокоссовского (Московское центральное кольцо)",
    "location": {
      "lat": 55.813927,
      "lng": 37.7338677
    },
    "city": "Москва"
  },
  {
    "id": 66,
    "name": "Парк культуры (Кольцевая линия)",
    "location": {
      "lat": 55.7355873,
      "lng": 37.5941313
    },
    "city": "Москва"
  },
  {
    "id": 67,
    "name": "Андроновка",
    "location": {
      "lat": 55.7467091,
      "lng": 37.73726
    },
    "city": "Москва"
  },
  {
    "id": 68,
    "name": "Профсоюзная",
    "location": {
      "lat": 55.6790694,
      "lng": 37.5631664
    },
    "city": "Москва"
  },
  {
    "id": 69,
    "name": "Севастопольская",
    "location": {
      "lat": 55.6510645,
      "lng": 37.5982665
    },
    "city": "Москва"
  },
  {
    "id": 70,
    "name": "Парк Победы (Калининская линия)",
    "location": {
      "lat": 55.73588480000001,
      "lng": 37.5174924
    },
    "city": "Москва"
  },
  {
    "id": 71,
    "name": "Бибирево",
    "location": {
      "lat": 55.88346259999999,
      "lng": 37.6050213
    },
    "city": "Москва"
  },
  {
    "id": 72,
    "name": "Сретенский бульвар",
    "location": {
      "lat": 55.7656364,
      "lng": 37.6375562
    },
    "city": "Москва"
  },
  {
    "id": 73,
    "name": "Панфиловская",
    "location": {
      "lat": 55.7974039,
      "lng": 37.4985915
    },
    "city": "Москва"
  },
  {
    "id": 74,
    "name": "Битцевский парк",
    "location": {
      "lat": 55.6008479,
      "lng": 37.555743
    },
    "city": "Москва"
  },
  {
    "id": 75,
    "name": "Окружная",
    "location": {
      "lat": 55.8490038,
      "lng": 37.5712362
    },
    "city": "Москва"
  },
  {
    "id": 76,
    "name": "Пл. Революции",
    "location": {
      "lat": 55.7564497,
      "lng": 37.623354
    },
    "city": "Москва"
  },
  {
    "id": 77,
    "name": "Новокосино",
    "location": {
      "lat": 55.745106,
      "lng": 37.86401499999999
    },
    "city": "Москва"
  },
  {
    "id": 78,
    "name": "Беляево",
    "location": {
      "lat": 55.6435702,
      "lng": 37.52728219999999
    },
    "city": "Москва"
  },
  {
    "id": 79,
    "name": "Менделеевская",
    "location": {
      "lat": 55.7819839,
      "lng": 37.59860219999999
    },
    "city": "Москва"
  },
  {
    "id": 80,
    "name": "Щёлковская",
    "location": {
      "lat": 55.8106,
      "lng": 37.7980196
    },
    "city": "Москва"
  },
  {
    "id": 81,
    "name": "Кропоткинская",
    "location": {
      "lat": 55.744263,
      "lng": 37.6004452
    },
    "city": "Москва"
  },
  {
    "id": 82,
    "name": "Курская (Арбатско-Покровская линия)",
    "location": {
      "lat": 55.7521566,
      "lng": 37.6015557
    },
    "city": "Москва"
  },
  {
    "id": 83,
    "name": "Цветной бульвар",
    "location": {
      "lat": 55.7712005,
      "lng": 37.62162070000001
    },
    "city": "Москва"
  },
  {
    "id": 84,
    "name": "Октябрьская (Кольцевая линия)",
    "location": {
      "lat": 55.73015059999999,
      "lng": 37.6121611
    },
    "city": "Москва"
  },
  {
    "id": 85,
    "name": "Дмитровская",
    "location": {
      "lat": 55.81119409999999,
      "lng": 37.5752538
    },
    "city": "Москва"
  },
  {
    "id": 86,
    "name": "Владыкино (Московское центральное кольцо)",
    "location": {
      "lat": 55.8460423,
      "lng": 37.5893196
    },
    "city": "Москва"
  },
  {
    "id": 87,
    "name": "Новослободская",
    "location": {
      "lat": 55.7800593,
      "lng": 37.6019928
    },
    "city": "Москва"
  },
  {
    "id": 88,
    "name": "Юго-Западная",
    "location": {
      "lat": 55.664465,
      "lng": 37.4843114
    },
    "city": "Москва"
  },
  {
    "id": 89,
    "name": "Добрынинская",
    "location": {
      "lat": 55.7288168,
      "lng": 37.6239476
    },
    "city": "Москва"
  },
  {
    "id": 90,
    "name": "Тульская",
    "location": {
      "lat": 55.709227,
      "lng": 37.6247149
    },
    "city": "Москва"
  },
  {
    "id": 91,
    "name": "Кузнецкий Мост",
    "location": {
      "lat": 55.7614779,
      "lng": 37.62434
    },
    "city": "Москва"
  },
  {
    "id": 92,
    "name": "Октябрьская (Калужско-Рижская линия)",
    "location": {
      "lat": 55.73015059999999,
      "lng": 37.6121611
    },
    "city": "Москва"
  },
  {
    "id": 93,
    "name": "Киевская (Филевская линия)",
    "location": {
      "lat": 55.7437638,
      "lng": 37.567594
    },
    "city": "Москва"
  },
  {
    "id": 94,
    "name": "Планерная",
    "location": {
      "lat": 55.86264079999999,
      "lng": 37.435708
    },
    "city": "Москва"
  },
  {
    "id": 95,
    "name": "Парк культуры (Сокольническая линия)",
    "location": {
      "lat": 55.7355873,
      "lng": 37.5941313
    },
    "city": "Москва"
  },
  {
    "id": 96,
    "name": "Трубная",
    "location": {
      "lat": 55.7678796,
      "lng": 37.6218172
    },
    "city": "Москва"
  },
  {
    "id": 97,
    "name": "Полянка",
    "location": {
      "lat": 55.73683,
      "lng": 37.6186425
    },
    "city": "Москва"
  },
  {
    "id": 98,
    "name": "Владыкино (Серпухово-Тимирязевская линия)",
    "location": {
      "lat": 55.8488462,
      "lng": 37.5908953
    },
    "city": "Москва"
  },
  {
    "id": 99,
    "name": "Балтийская",
    "location": {
      "lat": 55.8258959,
      "lng": 37.496436
    },
    "city": "Москва"
  },
  {
    "id": 100,
    "name": "Павелецкая (Замоскворецкая линия)",
    "location": {
      "lat": 55.7310093,
      "lng": 37.6363571
    },
    "city": "Москва"
  },
  {
    "id": 101,
    "name": "Красносельская",
    "location": {
      "lat": 55.7794012,
      "lng": 37.6659152
    },
    "city": "Москва"
  },
  {
    "id": 102,
    "name": "Марьина Роща",
    "location": {
      "lat": 55.79409510000001,
      "lng": 37.6162673
    },
    "city": "Москва"
  },
  {
    "id": 103,
    "name": "Тропарёво",
    "location": {
      "lat": 55.645736,
      "lng": 37.47267009999999
    },
    "city": "Москва"
  },
  {
    "id": 104,
    "name": "Университет",
    "location": {
      "lat": 55.692711,
      "lng": 37.536845
    },
    "city": "Москва"
  },
  {
    "id": 105,
    "name": "Улица 1905 года",
    "location": {
      "lat": 55.76332379999999,
      "lng": 37.5596383
    },
    "city": "Москва"
  },
  {
    "id": 106,
    "name": "Ленинский проспект",
    "location": {
      "lat": 55.70835169999999,
      "lng": 37.5873314
    },
    "city": "Москва"
  },
  {
    "id": 107,
    "name": "Лужники",
    "location": {
      "lat": 55.7209224,
      "lng": 37.5600403
    },
    "city": "Москва"
  },
  {
    "id": 108,
    "name": "Верхние Котлы",
    "location": {
      "lat": 55.6897057,
      "lng": 37.6187646
    },
    "city": "Москва"
  },
  {
    "id": 109,
    "name": "Угрешская",
    "location": {
      "lat": 55.7158372,
      "lng": 37.6948812
    },
    "city": "Москва"
  },
  {
    "id": 110,
    "name": "Варшавская",
    "location": {
      "lat": 55.653663,
      "lng": 37.6208615
    },
    "city": "Москва"
  },
  {
    "id": 111,
    "name": "Тёплый стан",
    "location": {
      "lat": 55.61854570000001,
      "lng": 37.5075941
    },
    "city": "Москва"
  },
  {
    "id": 112,
    "name": "Отрадное",
    "location": {
      "lat": 55.8627984,
      "lng": 37.60459
    },
    "city": "Москва"
  },
  {
    "id": 113,
    "name": "Пл. Гагарина",
    "location": {
      "lat": 55.7070613,
      "lng": 37.5859774
    },
    "city": "Москва"
  },
  {
    "id": 114,
    "name": "Ростокино",
    "location": {
      "lat": 55.842933,
      "lng": 37.665358
    },
    "city": "Москва"
  },
  {
    "id": 115,
    "name": "Белорусская (Кольцевая линия)",
    "location": {
      "lat": 55.77702189999999,
      "lng": 37.5814844
    },
    "city": "Москва"
  },
  {
    "id": 116,
    "name": "Борисово",
    "location": {
      "lat": 55.632355,
      "lng": 37.7433734
    },
    "city": "Москва"
  },
  {
    "id": 117,
    "name": "Лермонтовский проспект",
    "location": {
      "lat": 55.7021495,
      "lng": 37.8517845
    },
    "city": "Москва"
  },
  {
    "id": 118,
    "name": "Александровский сад",
    "location": {
      "lat": 55.7521222,
      "lng": 37.6136934
    },
    "city": "Москва"
  },
  {
    "id": 119,
    "name": "Нахимовский проспект",
    "location": {
      "lat": 55.6641819,
      "lng": 37.6066915
    },
    "city": "Москва"
  },
  {
    "id": 120,
    "name": "Фили",
    "location": {
      "lat": 55.7431254,
      "lng": 37.4983262
    },
    "city": "Москва"
  },
  {
    "id": 121,
    "name": "Кузьминки",
    "location": {
      "lat": 55.705137,
      "lng": 37.7669158
    },
    "city": "Москва"
  },
  {
    "id": 122,
    "name": "Выхино",
    "location": {
      "lat": 55.71611799999999,
      "lng": 37.817089
    },
    "city": "Москва"
  },
  {
    "id": 123,
    "name": "Шипиловская",
    "location": {
      "lat": 55.6202081,
      "lng": 37.7432181
    },
    "city": "Москва"
  },
  {
    "id": 124,
    "name": "Аэропорт",
    "location": {
      "lat": 55.8010929,
      "lng": 37.5322523
    },
    "city": "Москва"
  },
  {
    "id": 125,
    "name": "Котельники",
    "location": {
      "lat": 55.67470179999999,
      "lng": 37.8581787
    },
    "city": "Москва"
  },
  {
    "id": 126,
    "name": "Динамо",
    "location": {
      "lat": 55.7891159,
      "lng": 37.5595953
    },
    "city": "Москва"
  },
  {
    "id": 127,
    "name": "Волжская",
    "location": {
      "lat": 55.6902876,
      "lng": 37.7553378
    },
    "city": "Москва"
  },
  {
    "id": 128,
    "name": "Третьяковская (Калужско-Рижская линия)",
    "location": {
      "lat": 55.796722,
      "lng": 37.639819
    },
    "city": "Москва"
  },
  {
    "id": 129,
    "name": "Фонвизинская",
    "location": {
      "lat": 55.8219267,
      "lng": 37.5889479
    },
    "city": "Москва"
  },
  {
    "id": 130,
    "name": "Авиамоторная",
    "location": {
      "lat": 55.7510767,
      "lng": 37.7170718
    },
    "city": "Москва"
  },
  {
    "id": 131,
    "name": "Сухаревская",
    "location": {
      "lat": 55.7723688,
      "lng": 37.6316918
    },
    "city": "Москва"
  },
  {
    "id": 132,
    "name": "Аннино",
    "location": {
      "lat": 55.5827441,
      "lng": 37.5965773
    },
    "city": "Москва"
  },
  {
    "id": 133,
    "name": "Шаболовская",
    "location": {
      "lat": 55.718294,
      "lng": 37.609102
    },
    "city": "Москва"
  },
  {
    "id": 134,
    "name": "Локомотив",
    "location": {
      "lat": 55.8032783,
      "lng": 37.7453285
    },
    "city": "Москва"
  },
  {
    "id": 135,
    "name": "Комсомольская (Кольцевая линия)",
    "location": {
      "lat": 55.7762511,
      "lng": 37.655818
    },
    "city": "Москва"
  },
  {
    "id": 136,
    "name": "Братиславская",
    "location": {
      "lat": 55.6588442,
      "lng": 37.7500922
    },
    "city": "Москва"
  },
  {
    "id": 137,
    "name": "Саларьево",
    "location": {
      "lat": 55.62196770000001,
      "lng": 37.424656
    },
    "city": "Москва"
  },
  {
    "id": 138,
    "name": "Бульвар Адмирала Ушакова",
    "location": {
      "lat": 55.54516899999999,
      "lng": 37.5426761
    },
    "city": "Москва"
  },
  {
    "id": 139,
    "name": "ВДНХ",
    "location": {
      "lat": 55.831,
      "lng": 37.62979989999999
    },
    "city": "Москва"
  },
  {
    "id": 140,
    "name": "Площадь Ильича",
    "location": {
      "lat": 55.747211,
      "lng": 37.6799306
    },
    "city": "Москва"
  },
  {
    "id": 141,
    "name": "Шоссе Энтузиастов (Московское центральное кольцо)",
    "location": {
      "lat": 55.75840789999999,
      "lng": 37.7516629
    },
    "city": "Москва"
  },
  {
    "id": 142,
    "name": "Раменки",
    "location": {
      "lat": 55.7056774,
      "lng": 37.5150243
    },
    "city": "Москва"
  },
  {
    "id": 143,
    "name": "Серпуховская",
    "location": {
      "lat": 55.72721,
      "lng": 37.6252376
    },
    "city": "Москва"
  },
  {
    "id": 144,
    "name": "Южная",
    "location": {
      "lat": 55.6233905,
      "lng": 37.60913
    },
    "city": "Москва"
  },
  {
    "id": 145,
    "name": "Новогиреево",
    "location": {
      "lat": 55.751409,
      "lng": 37.81846300000001
    },
    "city": "Москва"
  },
  {
    "id": 146,
    "name": "Дубровка (Люблинско-Дмитровская линия)",
    "location": {
      "lat": 55.7126661,
      "lng": 37.6776414
    },
    "city": "Москва"
  },
  {
    "id": 147,
    "name": "Нагатинская",
    "location": {
      "lat": 55.6843162,
      "lng": 37.6234749
    },
    "city": "Москва"
  },
  {
    "id": 148,
    "name": "Рижская",
    "location": {
      "lat": 55.792496,
      "lng": 37.6361511
    },
    "city": "Москва"
  },
  {
    "id": 149,
    "name": "Орехово",
    "location": {
      "lat": 55.613381,
      "lng": 37.6945319
    },
    "city": "Москва"
  },
  {
    "id": 150,
    "name": "Семёновская",
    "location": {
      "lat": 55.782747,
      "lng": 37.7226933
    },
    "city": "Москва"
  },
  {
    "id": 151,
    "name": "Зябликово",
    "location": {
      "lat": 55.6105935,
      "lng": 37.7461215
    },
    "city": "Москва"
  },
  {
    "id": 152,
    "name": "Ломоносовский проспект",
    "location": {
      "lat": 55.707397,
      "lng": 37.516707
    },
    "city": "Москва"
  },
  {
    "id": 153,
    "name": "Печатники",
    "location": {
      "lat": 55.69264760000001,
      "lng": 37.7281888
    },
    "city": "Москва"
  },
  {
    "id": 154,
    "name": "Тушинская",
    "location": {
      "lat": 55.82710059999999,
      "lng": 37.4366454
    },
    "city": "Москва"
  },
  {
    "id": 155,
    "name": "Ботанический сад (Калужско-Рижская линия)",
    "location": {
      "lat": 55.845341,
      "lng": 37.63870989999999
    },
    "city": "Москва"
  },
  {
    "id": 156,
    "name": "Красные Ворота",
    "location": {
      "lat": 55.7694185,
      "lng": 37.6492375
    },
    "city": "Москва"
  },
  {
    "id": 157,
    "name": "Текстильщики",
    "location": {
      "lat": 55.7089716,
      "lng": 37.7334396
    },
    "city": "Москва"
  },
  {
    "id": 158,
    "name": "Чертановская",
    "location": {
      "lat": 55.64083300000001,
      "lng": 37.606228
    },
    "city": "Москва"
  },
  {
    "id": 159,
    "name": "Алексеевская",
    "location": {
      "lat": 55.80820259999999,
      "lng": 37.6370504
    },
    "city": "Москва"
  },
  {
    "id": 160,
    "name": "Алтуфьево",
    "location": {
      "lat": 55.89863330000001,
      "lng": 37.5850668
    },
    "city": "Москва"
  },
  {
    "id": 161,
    "name": "Соколиная Гора",
    "location": {
      "lat": 55.771528,
      "lng": 37.7451019
    },
    "city": "Москва"
  },
  {
    "id": 162,
    "name": "Волгоградский проспект",
    "location": {
      "lat": 55.7249352,
      "lng": 37.6870887
    },
    "city": "Москва"
  },
  {
    "id": 163,
    "name": "Охотный ряд",
    "location": {
      "lat": 55.7571346,
      "lng": 37.6147071
    },
    "city": "Москва"
  },
  {
    "id": 164,
    "name": "Марьино",
    "location": {
      "lat": 55.649119,
      "lng": 37.7444829
    },
    "city": "Москва"
  },
  {
    "id": 165,
    "name": "Ул. Академика Янгеля",
    "location": {
      "lat": 55.59499599999999,
      "lng": 37.6017376
    },
    "city": "Москва"
  },
  {
    "id": 166,
    "name": "Пролетарская",
    "location": {
      "lat": 55.731371,
      "lng": 37.663937
    },
    "city": "Москва"
  },
  {
    "id": 167,
    "name": "Достоевская",
    "location": {
      "lat": 55.7816464,
      "lng": 37.6140785
    },
    "city": "Москва"
  },
  {
    "id": 168,
    "name": "Римская",
    "location": {
      "lat": 55.7468006,
      "lng": 37.6795593
    },
    "city": "Москва"
  },
  {
    "id": 169,
    "name": "Чкаловская",
    "location": {
      "lat": 55.7561178,
      "lng": 37.6597442
    },
    "city": "Москва"
  },
  {
    "id": 170,
    "name": "Третьяковская (Калининская линия)",
    "location": {
      "lat": 55.7404455,
      "lng": 37.6297724
    },
    "city": "Москва"
  },
  {
    "id": 171,
    "name": "Черкизовская",
    "location": {
      "lat": 55.8032783,
      "lng": 37.7453285
    },
    "city": "Москва"
  },
  {
    "id": 172,
    "name": "Фрунзенская",
    "location": {
      "lat": 55.726897,
      "lng": 37.578633
    },
    "city": "Москва"
  },
  {
    "id": 173,
    "name": "Тимирязевская",
    "location": {
      "lat": 55.819157,
      "lng": 37.576042
    },
    "city": "Москва"
  },
  {
    "id": 174,
    "name": "Хорошёво",
    "location": {
      "lat": 55.777364,
      "lng": 37.5071288
    },
    "city": "Москва"
  },
  {
    "id": 175,
    "name": "Свиблово",
    "location": {
      "lat": 55.85574390000001,
      "lng": 37.6544252
    },
    "city": "Москва"
  },
  {
    "id": 176,
    "name": "Библиотека им. Ленина",
    "location": {
      "lat": 55.7522463,
      "lng": 37.6102571
    },
    "city": "Москва"
  },
  {
    "id": 177,
    "name": "Улица Скобелевская",
    "location": {
      "lat": 55.548023,
      "lng": 37.554657
    },
    "city": "Москва"
  },
  {
    "id": 178,
    "name": "Деловой центр (МЦК)",
    "location": {
      "lat": 55.7472358,
      "lng": 37.53213969999999
    },
    "city": "Москва"
  },
  {
    "id": 179,
    "name": "Нижегородская",
    "location": {
      "lat": 55.732132,
      "lng": 37.7282261
    },
    "city": "Москва"
  },
  {
    "id": 180,
    "name": "Войковская",
    "location": {
      "lat": 55.818848,
      "lng": 37.4987659
    },
    "city": "Москва"
  },
  {
    "id": 181,
    "name": "Новые Черёмушки",
    "location": {
      "lat": 55.670385,
      "lng": 37.554719
    },
    "city": "Москва"
  },
  {
    "id": 182,
    "name": "Бульвар Дмитрия Донского",
    "location": {
      "lat": 55.569497,
      "lng": 37.576439
    },
    "city": "Москва"
  },
  {
    "id": 183,
    "name": "Лихоборы",
    "location": {
      "lat": 55.8476559,
      "lng": 37.5530459
    },
    "city": "Москва"
  },
  {
    "id": 184,
    "name": "Пражская",
    "location": {
      "lat": 55.610969,
      "lng": 37.6038005
    },
    "city": "Москва"
  },
  {
    "id": 185,
    "name": "Измайлово",
    "location": {
      "lat": 55.7894995,
      "lng": 37.7429937
    },
    "city": "Москва"
  },
  {
    "id": 186,
    "name": "Минская",
    "location": {
      "lat": 55.72458200000001,
      "lng": 37.496939
    },
    "city": "Москва"
  },
  {
    "id": 187,
    "name": "Деловой центр",
    "location": {
      "lat": 55.74906499999999,
      "lng": 37.539564
    },
    "city": "Москва"
  },
  {
    "id": 188,
    "name": "Сокольники",
    "location": {
      "lat": 55.7897614,
      "lng": 37.6809504
    },
    "city": "Москва"
  },
  {
    "id": 189,
    "name": "Дубровка (Московское центральное кольцо)",
    "location": {
      "lat": 55.7126661,
      "lng": 37.6776414
    },
    "city": "Москва"
  },
  {
    "id": 190,
    "name": "Новоясеневская",
    "location": {
      "lat": 55.6019545,
      "lng": 37.5529046
    },
    "city": "Москва"
  },
  {
    "id": 191,
    "name": "Спартак",
    "location": {
      "lat": 55.818126,
      "lng": 37.435859
    },
    "city": "Москва"
  },
  {
    "id": 192,
    "name": "Измайловская",
    "location": {
      "lat": 55.78840839999999,
      "lng": 37.778897
    },
    "city": "Москва"
  },
  {
    "id": 193,
    "name": "Новокузнецкая",
    "location": {
      "lat": 55.7422718,
      "lng": 37.6298175
    },
    "city": "Москва"
  },
  {
    "id": 194,
    "name": "Домодедовская",
    "location": {
      "lat": 55.6100587,
      "lng": 37.7184665
    },
    "city": "Москва"
  },
  {
    "id": 195,
    "name": "Смоленская",
    "location": {
      "lat": 55.747933,
      "lng": 37.5836873
    },
    "city": "Москва"
  },
  {
    "id": 196,
    "name": "Проспект Вернадского",
    "location": {
      "lat": 55.67684999999999,
      "lng": 37.506491
    },
    "city": "Москва"
  },
  {
    "id": 197,
    "name": "Технопарк",
    "location": {
      "lat": 55.693915,
      "lng": 37.664393
    },
    "city": "Москва"
  },
  {
    "id": 198,
    "name": "Театральная",
    "location": {
      "lat": 55.7565697,
      "lng": 37.619604
    },
    "city": "Москва"
  },
  {
    "id": 199,
    "name": "Сокол",
    "location": {
      "lat": 55.8050392,
      "lng": 37.514829
    },
    "city": "Москва"
  },
  {
    "id": 200,
    "name": "Шелепиха",
    "location": {
      "lat": 55.7575685,
      "lng": 37.5255417
    },
    "city": "Москва"
  },
  {
    "id": 201,
    "name": "Царицыно",
    "location": {
      "lat": 55.6216433,
      "lng": 37.6693266
    },
    "city": "Москва"
  },
  {
    "id": 202,
    "name": "Лесопарковая",
    "location": {
      "lat": 55.581433,
      "lng": 37.579106
    },
    "city": "Москва"
  },
  {
    "id": 203,
    "name": "Крестьянская Застава",
    "location": {
      "lat": 55.7323098,
      "lng": 37.6655398
    },
    "city": "Москва"
  },
  {
    "id": 204,
    "name": "Румянцево",
    "location": {
      "lat": 55.632969,
      "lng": 37.4416961
    },
    "city": "Москва"
  },
  {
    "id": 205,
    "name": "Зорге",
    "location": {
      "lat": 55.78819919999999,
      "lng": 37.5042661
    },
    "city": "Москва"
  },
  {
    "id": 206,
    "name": "Белокаменная",
    "location": {
      "lat": 55.8293,
      "lng": 37.702428
    },
    "city": "Москва"
  },
  {
    "id": 207,
    "name": "Филёвский парк",
    "location": {
      "lat": 55.7404467,
      "lng": 37.4824586
    },
    "city": "Москва"
  },
  {
    "id": 208,
    "name": "Новохохловская",
    "location": {
      "lat": 55.724146,
      "lng": 37.716998
    },
    "city": "Москва"
  },
  {
    "id": 209,
    "name": "Автозаводская (Московское центральное кольцо)",
    "location": {
      "lat": 55.7084102,
      "lng": 37.6580913
    },
    "city": "Москва"
  },
  {
    "id": 210,
    "name": "Крымская",
    "location": {
      "lat": 55.689854,
      "lng": 37.6057769
    },
    "city": "Москва"
  },
  {
    "id": 211,
    "name": "Тургеневская",
    "location": {
      "lat": 55.7654854,
      "lng": 37.63659060000001
    },
    "city": "Москва"
  },
  {
    "id": 212,
    "name": "Преображенская пл.",
    "location": {
      "lat": 55.7958578,
      "lng": 37.7130647
    },
    "city": "Москва"
  },
  {
    "id": 213,
    "name": "Шоссе Энтузиастов (Калининская линия)",
    "location": {
      "lat": 55.75840789999999,
      "lng": 37.7516629
    },
    "city": "Москва"
  },
  {
    "id": 214,
    "name": "Калужская",
    "location": {
      "lat": 55.65716699999999,
      "lng": 37.540428
    },
    "city": "Москва"
  },
  {
    "id": 215,
    "name": "Воробьёвы горы",
    "location": {
      "lat": 55.7115933,
      "lng": 37.5610489
    },
    "city": "Москва"
  },
  {
    "id": 216,
    "name": "Коптево",
    "location": {
      "lat": 55.8267016,
      "lng": 37.5172851
    },
    "city": "Москва"
  },
  {
    "id": 217,
    "name": "Ясенево",
    "location": {
      "lat": 55.6061826,
      "lng": 37.5348709
    },
    "city": "Москва"
  },
  {
    "id": 218,
    "name": "Академическая",
    "location": {
      "lat": 55.7271276,
      "lng": 37.611066
    },
    "city": "Москва"
  },
  {
    "id": 219,
    "name": "Спортивная",
    "location": {
      "lat": 55.7224041,
      "lng": 37.5619474
    },
    "city": "Москва"
  },
  {
    "id": 220,
    "name": "Коньково",
    "location": {
      "lat": 55.6346554,
      "lng": 37.51959009999999
    },
    "city": "Москва"
  },
  {
    "id": 221,
    "name": "Китай-Город(Калужско-Рижская линия)",
    "location": {
      "lat": 55.756847,
      "lng": 37.631136
    },
    "city": "Москва"
  },
  {
    "id": 222,
    "name": "Китай-Город(Таганско-Краснопресненская линия)",
    "location": {
      "lat": 55.756847,
      "lng": 37.631136
    },
    "city": "Москва"
  },
  {
    "id": 223,
    "name": "Кутузовская(Московское центральное кольцо)",
    "location": {
      "lat": 55.740031,
      "lng": 37.534385
    },
    "city": "Москва"
  },
  {
    "id": 224,
    "name": "Кунцевская(Арбатско-Покровская линия)",
    "location": {
      "lat": 55.730636,
      "lng": 37.446053
    },
    "city": "Москва"
  },
  {
    "id": 225,
    "name": "Петровско-Разумовская(Люблинско-Дмитровская линия)",
    "location": {
      "lat": 55.836571,
      "lng": 37.57546
    },
    "city": "Москва"
  },
  {
    "id": 226,
    "name": "Петровско-Разумовская(Серпухово-Тимирязевская линия)",
    "location": {
      "lat": 55.836571,
      "lng": 37.57546
    },
    "city": "Москва"
  },
  {
    "id": 227,
    "name": "Проспект Мира(Кольцевая линия)",
    "location": {
      "lat": 55.779442,
      "lng": 37.633227
    },
    "city": "Москва"
  },
  {
    "id": 228,
    "name": "Проспект Мира(Калужско-Рижская линия)",
    "location": {
      "lat": 55.779442,
      "lng": 37.633227
    },
    "city": "Москва"
  },
  {
    "id": 229,
    "name": "Таганская(Кольцевая линия)",
    "location": {
      "lat": 55.74237,
      "lng": 37.653661
    },
    "city": "Москва"
  },
  {
    "id": 230,
    "name": "Таганская(Таганско-Краснопресненская линия)",
    "location": {
      "lat": 55.74237,
      "lng": 37.653661
    },
    "city": "Москва"
  },
  {
    "id": 231,
    "name": "Каширская(Замоскворецкая кольцо)",
    "location": {
      "lat": 55.654393,
      "lng": 37.647499
    },
    "city": "Москва"
  },
  {
    "id": 232,
    "name": "Каширская(Каховская линия)",
    "location": {
      "lat": 55.654393,
      "lng": 37.647499
    },
    "city": "Москва"
  },
  {
    "id": 233,
    "name": "Бабушкинская",
    "location": {
      "lat": 55.870771,
      "lng": 37.664745
    },
    "city": "Москва"
  },
  {
    "id": 234,
    "name": "Ботанический сад(Московское центральное кольцо)",
    "location": {
      "lat": 55.845748,
      "lng": 37.640874
    },
    "city": "Москва"
  },
  {
    "id": 235,
    "name": "Озерки",
    "location": {
      "lat": 60.0361015,
      "lng": 30.32144749999999
    },
    "city": "CПб"
  },
  {
    "id": 236,
    "name": "Пионерская",
    "location": {
      "lat": 60.0030444,
      "lng": 30.297892
    },
    "city": "CПб"
  },
  {
    "id": 237,
    "name": "Удельная",
    "location": {
      "lat": 60.0177814,
      "lng": 30.3152373
    },
    "city": "CПб"
  },
  {
    "id": 238,
    "name": "Площадь Восстания",
    "location": {
      "lat": 59.9315915,
      "lng": 30.3604422
    },
    "city": "CПб"
  },
  {
    "id": 239,
    "name": "Комендантский проспект",
    "location": {
      "lat": 60.00755629999999,
      "lng": 30.2577772
    },
    "city": "CПб"
  },
  {
    "id": 240,
    "name": "Площадь Ленина",
    "location": {
      "lat": 59.9554418,
      "lng": 30.3568941
    },
    "city": "CПб"
  },
  {
    "id": 241,
    "name": "Спортивная",
    "location": {
      "lat": 59.95131740000001,
      "lng": 30.2941147
    },
    "city": "CПб"
  },
  {
    "id": 242,
    "name": "Садовая",
    "location": {
      "lat": 59.92685280000001,
      "lng": 30.3167434
    },
    "city": "CПб"
  },
  {
    "id": 243,
    "name": "Чернышевская",
    "location": {
      "lat": 59.94421060000001,
      "lng": 30.3604775
    },
    "city": "CПб"
  },
  {
    "id": 244,
    "name": "Горьковская",
    "location": {
      "lat": 59.956587,
      "lng": 30.318972
    },
    "city": "CПб"
  },
  {
    "id": 245,
    "name": "Крестовский остров",
    "location": {
      "lat": 59.9713982,
      "lng": 30.25912
    },
    "city": "CПб"
  },
  {
    "id": 246,
    "name": "Площадь Мужества",
    "location": {
      "lat": 60.000367,
      "lng": 30.3657389
    },
    "city": "CПб"
  },
  {
    "id": 247,
    "name": "Проспект Ветеранов",
    "location": {
      "lat": 59.8429833,
      "lng": 30.2455527
    },
    "city": "CПб"
  },
  {
    "id": 248,
    "name": "Сенная площадь",
    "location": {
      "lat": 59.9278357,
      "lng": 30.3201135
    },
    "city": "CПб"
  },
  {
    "id": 249,
    "name": "Достоевская",
    "location": {
      "lat": 59.92832800000001,
      "lng": 30.3462981
    },
    "city": "CПб"
  },
  {
    "id": 250,
    "name": "Пушкинская",
    "location": {
      "lat": 59.92057209999999,
      "lng": 30.3296797
    },
    "city": "CПб"
  },
  {
    "id": 251,
    "name": "Международная",
    "location": {
      "lat": 59.87133600000001,
      "lng": 30.3800326
    },
    "city": "CПб"
  },
  {
    "id": 252,
    "name": "Парнас",
    "location": {
      "lat": 60.06744320000001,
      "lng": 30.3344335
    },
    "city": "CПб"
  },
  {
    "id": 253,
    "name": "Петроградская",
    "location": {
      "lat": 59.96666200000001,
      "lng": 30.3114291
    },
    "city": "CПб"
  },
  {
    "id": 254,
    "name": "Московские Ворота",
    "location": {
      "lat": 59.8917547,
      "lng": 30.3181496
    },
    "city": "CПб"
  },
  {
    "id": 255,
    "name": "Чкаловская",
    "location": {
      "lat": 59.96103149999999,
      "lng": 30.292196
    },
    "city": "CПб"
  },
  {
    "id": 256,
    "name": "Спасская",
    "location": {
      "lat": 59.9265835,
      "lng": 30.318169
    },
    "city": "CПб"
  },
  {
    "id": 257,
    "name": "Парк Победы",
    "location": {
      "lat": 59.8658144,
      "lng": 30.320635
    },
    "city": "CПб"
  },
  {
    "id": 258,
    "name": "Лиговский проспект",
    "location": {
      "lat": 59.9208179,
      "lng": 30.3550178
    },
    "city": "CПб"
  },
  {
    "id": 259,
    "name": "Лесная",
    "location": {
      "lat": 59.98036999999999,
      "lng": 30.350409
    },
    "city": "CПб"
  },
  {
    "id": 260,
    "name": "Московская",
    "location": {
      "lat": 59.9164566,
      "lng": 30.3185011
    },
    "city": "CПб"
  },
  {
    "id": 261,
    "name": "Купчино",
    "location": {
      "lat": 59.82971529999999,
      "lng": 30.3754302
    },
    "city": "CПб"
  },
  {
    "id": 262,
    "name": "Площадь Александра Невского-1",
    "location": {
      "lat": 59.9313227,
      "lng": 30.3547983
    },
    "city": "CПб"
  },
  {
    "id": 263,
    "name": "Старая Деревня",
    "location": {
      "lat": 59.98991849999999,
      "lng": 30.25608919999999
    },
    "city": "CПб"
  },
  {
    "id": 264,
    "name": "Невский проспект",
    "location": {
      "lat": 59.9346721,
      "lng": 30.3306609
    },
    "city": "CПб"
  },
  {
    "id": 265,
    "name": "Технологический институт-2",
    "location": {
      "lat": 59.9162195,
      "lng": 30.3181914
    },
    "city": "CПб"
  },
  {
    "id": 266,
    "name": "Владимирская",
    "location": {
      "lat": 59.9164566,
      "lng": 30.3185011
    },
    "city": "CПб"
  },
  {
    "id": 267,
    "name": "Звёздная",
    "location": {
      "lat": 59.8339299,
      "lng": 30.3474534
    },
    "city": "CПб"
  },
  {
    "id": 268,
    "name": "Гостиный Двор",
    "location": {
      "lat": 59.934251,
      "lng": 30.3352726
    },
    "city": "CПб"
  },
  {
    "id": 269,
    "name": "Гражданский проспект",
    "location": {
      "lat": 60.03566499999999,
      "lng": 30.420102
    },
    "city": "CПб"
  },
  {
    "id": 270,
    "name": "Чёрная речка",
    "location": {
      "lat": 59.9854346,
      "lng": 30.3011467
    },
    "city": "CПб"
  },
  {
    "id": 271,
    "name": "Адмиралтейская",
    "location": {
      "lat": 59.93587170000001,
      "lng": 30.3149079
    },
    "city": "CПб"
  },
  {
    "id": 272,
    "name": "Электросила",
    "location": {
      "lat": 59.87919600000001,
      "lng": 30.3198625
    },
    "city": "CПб"
  },
  {
    "id": 273,
    "name": "Обводный канал",
    "location": {
      "lat": 59.9145852,
      "lng": 30.3494145
    },
    "city": "CПб"
  },
  {
    "id": 274,
    "name": "Проспект Просвещения",
    "location": {
      "lat": 60.0514636,
      "lng": 30.3324992
    },
    "city": "CПб"
  },
  {
    "id": 275,
    "name": "Площадь Александра Невского-2",
    "location": {
      "lat": 59.9323308,
      "lng": 30.3484025
    },
    "city": "CПб"
  },
  {
    "id": 276,
    "name": "Нарвская",
    "location": {
      "lat": 59.90213519999999,
      "lng": 30.2748896
    },
    "city": "CПб"
  },
  {
    "id": 277,
    "name": "Балтийская",
    "location": {
      "lat": 59.9077095,
      "lng": 30.3001132
    },
    "city": "CПб"
  },
  {
    "id": 278,
    "name": "Кировский завод",
    "location": {
      "lat": 59.87982890000001,
      "lng": 30.2613274
    },
    "city": "CПб"
  },
  {
    "id": 279,
    "name": "Елизаровская",
    "location": {
      "lat": 59.896623,
      "lng": 30.423741
    },
    "city": "CПб"
  },
  {
    "id": 280,
    "name": "Политехническая",
    "location": {
      "lat": 60.00846749999999,
      "lng": 30.3695865
    },
    "city": "CПб"
  },
  {
    "id": 281,
    "name": "Пролетарская",
    "location": {
      "lat": 59.864459,
      "lng": 30.470093
    },
    "city": "CПб"
  },
  {
    "id": 282,
    "name": "Ладожская",
    "location": {
      "lat": 59.93250099999999,
      "lng": 30.4392639
    },
    "city": "CПб"
  },
  {
    "id": 283,
    "name": "Ленинский проспект",
    "location": {
      "lat": 59.850672,
      "lng": 30.268412
    },
    "city": "CПб"
  },
  {
    "id": 284,
    "name": "Девяткино",
    "location": {
      "lat": 60.050189,
      "lng": 30.442632
    },
    "city": "CПб"
  },
  {
    "id": 285,
    "name": "Маяковская",
    "location": {
      "lat": 59.93175549999999,
      "lng": 30.3547421
    },
    "city": "CПб"
  },
  {
    "id": 286,
    "name": "Обухово",
    "location": {
      "lat": 59.847901,
      "lng": 30.4554429
    },
    "city": "CПб"
  },
  {
    "id": 287,
    "name": "Академическая",
    "location": {
      "lat": 60.01308849999999,
      "lng": 30.39776209999999
    },
    "city": "CПб"
  },
  {
    "id": 288,
    "name": "Фрунзенская",
    "location": {
      "lat": 59.90630160000001,
      "lng": 30.3176493
    },
    "city": "CПб"
  },
  {
    "id": 289,
    "name": "Ломоносовская",
    "location": {
      "lat": 59.87930299999999,
      "lng": 30.4469
    },
    "city": "CПб"
  },
  {
    "id": 290,
    "name": "Рыбацкое",
    "location": {
      "lat": 59.83138699999999,
      "lng": 30.50141589999999
    },
    "city": "CПб"
  },
  {
    "id": 291,
    "name": "Технологический институт-1",
    "location": {
      "lat": 59.9162195,
      "lng": 30.3181914
    },
    "city": "CПб"
  },
  {
    "id": 292,
    "name": "Волковская",
    "location": {
      "lat": 59.89838049999999,
      "lng": 30.3585654
    },
    "city": "CПб"
  },
  {
    "id": 293,
    "name": "Звенигородская",
    "location": {
      "lat": 59.9223916,
      "lng": 30.335733
    },
    "city": "CПб"
  },
  {
    "id": 294,
    "name": "Приморская",
    "location": {
      "lat": 59.9487539,
      "lng": 30.2322768
    },
    "city": "CПб"
  },
  {
    "id": 295,
    "name": "Бухарестская",
    "location": {
      "lat": 59.88376599999999,
      "lng": 30.369113
    },
    "city": "CПб"
  },
  {
    "id": 296,
    "name": "Улица Дыбенко",
    "location": {
      "lat": 59.907294,
      "lng": 30.4833379
    },
    "city": "CПб"
  },
  {
    "id": 297,
    "name": "Проспект Большевиков",
    "location": {
      "lat": 59.91958399999999,
      "lng": 30.4694491
    },
    "city": "CПб"
  },
  {
    "id": 298,
    "name": "Новочеркасская",
    "location": {
      "lat": 59.9284366,
      "lng": 30.412012
    },
    "city": "CПб"
  },
  {
    "id": 299,
    "name": "Автово",
    "location": {
      "lat": 59.86828200000001,
      "lng": 30.2569406
    },
    "city": "CПб"
  }
]